url,URN,School Name,Local Authority,Street,Town,Postcode,Phase,ReligiousCharacter (name),PAN 2025,Apps Received 2025,Offers Made 2025,1st Pref Rate %,Oversub Ratio,Latitude,Longitude,EstablishmentName,PAN
https://snobe.co.uk/schools/st-john-fisher-catholic-primary-school,101460,St John Fisher Catholic Primary School,Bexley,Kale Road,Erith,DA18 4BA,Primary,Roman Catholic,3225.0,2734.0,2713.0,92.28237015,1301.904761904762,51.495021,0.13218,St John Fisher Catholic Primary School,210
https://snobe.co.uk/schools/english-martyrs-roman-catholic-primary-school,100824,English Martyrs' Roman Catholic Primary School,Southwark,Flint Street,London,SE17 1RB,Primary,Roman Catholic,3264.0,2205.0,2175.0,84.67120181,668.1818181818181,51.49064,-0.088297,English Martyrs' Roman Catholic Primary School,330
https://snobe.co.uk/schools/st-edwards-catholic-primary-school,101128,St Edward's Catholic Primary School,Westminster,Lisson Grove,London,NW1 6LH,Primary,Roman Catholic,1209.0,968.0,932.0,85.84710744,230.47619047619045,51.523332,-0.165679,St Edward's Catholic Primary School,420
https://snobe.co.uk/schools/st-ignatius-rc-primary-school,102144,St Ignatius RC Primary School,Haringey,St Ann's Road,London,N15 6ND,Primary,Roman Catholic,2910.0,2348.0,2273.0,84.92333901,608.2901554404145,51.576387,-0.07304,St Ignatius RC Primary School,386
https://snobe.co.uk/schools/st-marys-priory-rc-junior-school,102145,St Mary's Priory RC Junior School,Haringey,Hermitage Road,LONDON,N15 5RE,Primary,Roman Catholic,2910.0,2348.0,2273.0,84.92333901,1956.6666666666667,51.580487,-0.085654,St Mary's Priory RC Junior School,120
https://snobe.co.uk/schools/blessed-dominic-catholic-primary-school,101339,Blessed Dominic Catholic Primary School,Barnet,Great Strand,London,NW9 5PE,Primary,Roman Catholic,4376.0,3709.0,3600.0,84.28147749,785.8050847457628,51.600831,-0.240936,Blessed Dominic Catholic Primary School,472
https://snobe.co.uk/schools/st-joseph-rc-junior-school,101795,St Joseph's RC Junior School,Croydon,Woodend,Select,SE19 3NU,Primary,Roman Catholic,4890.0,4309.0,4227.0,86.72545834,1795.4166666666665,51.421829,-0.100029,St Joseph's RC Junior School,240
https://snobe.co.uk/schools/annunciation-rc-junior-school,101342,The Annunciation RC Junior School,Barnet,The Meads,Edgware,HA8 9HQ,Primary,Roman Catholic,4376.0,3709.0,3600.0,84.28147749,1545.4166666666667,51.611879,-0.258232,The Annunciation RC Junior School,240
https://snobe.co.uk/schools/st-dominics-catholic-primary-school-0,133669,St. Dominic's Catholic Primary School,Hackney,Ballance Road,London,E9 5SR,Primary,Roman Catholic,2495.0,1817.0,1782.0,84.9752339,408.314606741573,51.545651,-0.039982,St. Dominic's Catholic Primary School,445
https://snobe.co.uk/schools/st-joachims-catholic-primary-school,141927,St Joachim's Catholic Primary School,Newham,Shipman Road,London,E16 3DT,Primary,Roman Catholic,4815.0,3919.0,3852.0,90.91605001,933.0952380952381,51.511747,0.03088,St Joachim's Catholic Primary School,420
https://snobe.co.uk/schools/st-eugene-de-mazenod-roman-catholic-primary-school,100047,St Eugene de Mazenod Roman Catholic Primary School,Camden,Mazenod Avenue,London,NW6 4LS,Primary,Roman Catholic,1458.0,1366.0,1297.0,80.23426061,650.4761904761905,51.54097,-0.193725,St Eugene de Mazenod Roman Catholic Primary School,210
https://snobe.co.uk/schools/st-agnes-catholic-primary-school-0,101332,St Agnes' Catholic Primary School,Barnet,Thorverton Road,London,NW2 1RG,Primary,Roman Catholic,4376.0,3709.0,3600.0,84.28147749,809.8253275109171,51.560495,-0.210884,St Agnes' Catholic Primary School,458
https://snobe.co.uk/schools/st-josephs-catholic-primary-school-sw3-2qt,100169,St Joseph's Catholic Primary School,Greenwich,Commerell Street,London,SE10 9AN,Primary,Roman Catholic,3574.0,2841.0,2808.0,91.20028159,1352.857142857143,51.48629,0.005737,St Joseph's Catholic Primary School,210
https://snobe.co.uk/schools/st-josephs-roman-catholic-primary-school-0,100832,St Joseph's Roman Catholic Primary School,Southwark,George Row,London,SE16 4UP,Primary,Roman Catholic,3264.0,2205.0,2175.0,84.67120181,639.1304347826087,51.499025,-0.069316,St Joseph's Roman Catholic Primary School,345
https://snobe.co.uk/schools/st-andrews-catholic-primary-school,100632,St Andrew's Catholic Primary School,Lambeth,Polworth Road,London,SW16 2ET,Primary,Roman Catholic,2675.0,2122.0,2042.0,82.8934967,505.23809523809524,51.424321,-0.125788,St Andrew's Catholic Primary School,420
https://snobe.co.uk/schools/st-charles-catholic-primary-school,100505,St Charles Catholic Primary School,Kensington and Chelsea,83 St Charles Square,London,W10 6EB,Primary,Roman Catholic,968.0,663.0,611.0,74.81146305,200.90909090909093,51.52172,-0.213918,St Charles Catholic Primary School,330
https://snobe.co.uk/schools/st-marys-rc-voluntary-aided-primary-school,101048,St Mary's RC Voluntary Aided Primary School,Wandsworth,7 St Josephs Street,London,SW8 4EN,Primary,Roman Catholic,2684.0,2482.0,2322.0,76.83319903,1118.018018018018,51.476569,-0.146156,St Mary's RC Voluntary Aided Primary School,222
https://snobe.co.uk/schools/st-fidelis-catholic-primary-school,101458,St Fidelis Catholic Primary School,Bexley,Bexley Road,Erith,DA8 3HQ,Primary,Roman Catholic,3225.0,2734.0,2713.0,92.28237015,638.785046728972,51.476275,0.162887,St Fidelis Catholic Primary School,428
https://snobe.co.uk/schools/st-scholasticas-catholic-primary-school,100274,St Scholastica's Catholic Primary School,Hackney,Kenninghall Road,London,E5 8BS,Primary,Roman Catholic,2495.0,1817.0,1782.0,84.9752339,769.9152542372882,51.558536,-0.059944,St Scholastica's Catholic Primary School,236
https://snobe.co.uk/schools/rosary-catholic-primary-school-2,100035,Rosary Catholic Primary School,Camden,238 Haverstock Hill,London,NW3 2AE,Primary,Roman Catholic,1458.0,1366.0,1297.0,80.23426061,379.44444444444446,51.55162,-0.166055,Rosary Catholic Primary School,360
https://snobe.co.uk/schools/st-michael-and-st-martin-catholic-primary-school,102531,St Michael and St Martin Catholic Primary School,Hounslow,Belgrave Road,Hounslow,TW4 7AG,Primary,Roman Catholic,3226.0,3027.0,2973.0,88.10703667,641.3135593220339,51.467061,-0.379119,St Michael and St Martin Catholic Primary School,472
https://snobe.co.uk/schools/saint-josephs-catholic-primary-school-borough,100834,"Saint Joseph's Catholic Primary School, the Borough",Southwark,Little Dorrit Court,London,SE1 1NJ,Primary,Roman Catholic,3264.0,2205.0,2175.0,84.67120181,980.0000000000001,51.502752,-0.093179,"Saint Joseph's Catholic Primary School, the Borough",225
https://snobe.co.uk/schools/st-edmunds-catholic-primary-school,102037,St Edmund's Catholic Primary School,Enfield,Hertford Road,Edmonton,N9 7HJ,Primary,Roman Catholic,3990.0,3309.0,3299.0,95.19492294,758.9449541284404,51.629281,-0.055657,St Edmund's Catholic Primary School,436
https://snobe.co.uk/schools/st-francis-de-sales-rc-junior-school,102143,St Francis de Sales RC Junior School,Haringey,Church Road,London,N17 8AZ,Primary,Roman Catholic,2910.0,2348.0,2273.0,84.92333901,978.3333333333334,51.602964,-0.068969,St Francis de Sales RC Junior School,240
https://snobe.co.uk/schools/our-lady-roman-catholic-primary-school,100048,Our Lady Roman Catholic Primary School,Camden,Pratt Street,London,NW1 0DP,Primary,Roman Catholic,1458.0,1366.0,1297.0,80.23426061,569.1666666666666,51.538867,-0.137453,Our Lady Roman Catholic Primary School,240
https://snobe.co.uk/schools/sacred-heart-catholic-primary-school,100437,Sacred Heart Catholic Primary School,Islington,68 Georges Road,London,N7 8JN,Primary,Roman Catholic,1905.0,1626.0,1569.0,80.93480935,337.344398340249,51.550222,-0.113623,Sacred Heart Catholic Primary School,482
https://snobe.co.uk/schools/st-bernadette-catholic-junior-school,100628,St Bernadette Catholic Junior School,Lambeth,1 - 4 Atkins Road,London,SW12 0AB,Primary,Roman Catholic,2675.0,2122.0,2042.0,82.8934967,884.1666666666666,51.447914,-0.144755,St Bernadette Catholic Junior School,240
https://snobe.co.uk/schools/st-agnes-rc-primary-school,100949,St Agnes RC Primary School,Tower Hamlets,Rainhill Way,London,E3 3ER,Primary,Roman Catholic,3480.0,2918.0,2858.0,92.2892392,1241.7021276595744,51.527343,-0.018653,St Agnes RC Primary School,235
https://snobe.co.uk/schools/st-josephs-catholic-junior-school,100853,St Joseph's Catholic Junior School,Southwark,Pitman Street,London,SE5 0TS,Primary,Roman Catholic,3264.0,2205.0,2175.0,84.67120181,918.75,51.479503,-0.099693,St Joseph's Catholic Junior School,240
https://snobe.co.uk/schools/st-winefrides-rc-primary-school,102774,St Winefride's RC Primary School,Newham,Church Road,London,E12 6HB,Primary,Roman Catholic,4815.0,3919.0,3852.0,90.91605001,1244.126984126984,51.548569,0.057919,St Winefride's RC Primary School,315
https://snobe.co.uk/schools/corpus-christi-catholic-primary-school-7,100630,Corpus Christi Catholic Primary School,Lambeth,Trent Road,London,SW2 5BL,Primary,Roman Catholic,2675.0,2122.0,2042.0,82.8934967,673.6507936507936,51.456183,-0.12136,Corpus Christi Catholic Primary School,315
https://snobe.co.uk/schools/st-patricks-catholic-primary-school,100045,St Patrick's Catholic Primary School,Camden,Holmes Road,London,NW5 3AH,Primary,Roman Catholic,1458.0,1366.0,1297.0,80.23426061,650.4761904761905,51.549203,-0.142786,St Patrick's Catholic Primary School,210
https://snobe.co.uk/schools/st-marys-catholic-junior-school-0,142226,St. Mary's Catholic Junior School,Croydon,Sydenham Road,Croydon,CR0 2EW,Primary,Roman Catholic,4890.0,4309.0,4227.0,86.72545834,1795.4166666666665,51.380599,-0.095156,St. Mary's Catholic Junior School,240
https://snobe.co.uk/schools/our-lady-victories-rc-primary-school,100504,Our Lady of Victories RC Primary School,Kensington and Chelsea,Clareville Street,London,SW7 5AQ,Primary,Roman Catholic,968.0,663.0,611.0,74.81146305,315.7142857142857,51.492836,-0.179437,Our Lady of Victories RC Primary School,210
https://snobe.co.uk/schools/st-thomas-canterbury-catholic-primary-school-4,100357,St Thomas of Canterbury Catholic Primary School,Hammersmith and Fulham,Estcourt Road,London,SW6 7HB,Primary,Catholic,1360.0,1220.0,1140.0,73.44262295,580.952380952381,51.481789,-0.206579,St Thomas of Canterbury Catholic Primary School,210
https://snobe.co.uk/schools/st-vincents-catholic-primary-school-2,101143,St Vincent's Catholic Primary School,Westminster,St Vincent Street,London,W1U 4DF,Primary,Roman Catholic,1209.0,968.0,932.0,85.84710744,410.1694915254237,51.518622,-0.152665,St Vincent's Catholic Primary School,236
https://snobe.co.uk/schools/st-marys-roman-catholic-primary-school,100636,St Mary's Roman Catholic Primary School,Lambeth,Crescent Lane,London,SW4 9QJ,Primary,Roman Catholic,2675.0,2122.0,2042.0,82.8934967,673.6507936507936,51.45925,-0.138293,St Mary's Roman Catholic Primary School,315
https://snobe.co.uk/schools/st-james-great-roman-catholic-primary-school,100825,St James the Great Roman Catholic Primary School,Southwark,Peckham Road,London,SE15 5LP,Primary,Roman Catholic,3264.0,2205.0,2175.0,84.67120181,1050.0,51.474356,-0.07308,St James the Great Roman Catholic Primary School,210
https://snobe.co.uk/schools/good-shepherd-rc-primary-school,100354,Good Shepherd RC Primary School,Hammersmith and Fulham,35 Gayford Road,London,W12 9BY,Primary,Roman Catholic,1360.0,1220.0,1140.0,73.44262295,580.952380952381,51.502829,-0.245622,Good Shepherd RC Primary School,210
https://snobe.co.uk/schools/st-john-vianney-rc-primary-school,102152,St John Vianney RC Primary School,Haringey,Stanley Road,London,N15 3HD,Primary,Roman Catholic,2910.0,2348.0,2273.0,84.92333901,1118.095238095238,51.585672,-0.096999,St John Vianney RC Primary School,210
https://snobe.co.uk/schools/holy-cross-catholic-primary-school,100739,Holy Cross Catholic Primary School,Lewisham,Culverley Road,London,SE6 2LD,Primary,Roman Catholic,3494.0,2939.0,2916.0,89.9625723,1399.5238095238096,51.442842,-0.016803,Holy Cross Catholic Primary School,210
https://snobe.co.uk/schools/saint-francis-assisi-catholic-primary-school,100494,Saint Francis of Assisi Catholic Primary School,Kensington and Chelsea,Treadgold Street,London,W11 4BJ,Primary,Roman Catholic,968.0,663.0,611.0,74.81146305,210.47619047619048,51.512216,-0.216913,Saint Francis of Assisi Catholic Primary School,315
https://snobe.co.uk/schools/holy-family-catholic-primary-school-16,100178,Holy Family Catholic Primary School,Greenwich,Tudway Road,London,SE3 9YX,Primary,Roman Catholic,3574.0,2841.0,2808.0,91.20028159,1352.857142857143,51.459948,0.030393,Holy Family Catholic Primary School,210
https://snobe.co.uk/schools/st-helens-catholic-primary-school-0,100623,St Helen's Catholic Primary School,Lambeth,Knowle Close,London,SW9 0TQ,Primary,Roman Catholic,2675.0,2122.0,2042.0,82.8934967,589.4444444444445,51.467131,-0.114288,St Helen's Catholic Primary School,360
https://snobe.co.uk/schools/our-lady-queen-heaven-rc-school,101051,Our Lady Queen of Heaven RC School,Wandsworth,Victoria Drive,London,SW19 6AD,Primary,Roman Catholic,2684.0,2482.0,2322.0,76.83319903,1069.8275862068965,51.44797,-0.220367,Our Lady Queen of Heaven RC School,232
https://snobe.co.uk/schools/english-martyrs-roman-catholic-primary-school-0,100962,English Martyrs Roman Catholic Primary School,Tower Hamlets,St Mark Street,London,E1 8DJ,Primary,Roman Catholic,3480.0,2918.0,2858.0,92.2892392,1488.7755102040817,51.512764,-0.070882,English Martyrs Roman Catholic Primary School,196
https://snobe.co.uk/schools/our-lady-grace-catholic-junior-school-0,101538,Our Lady of Grace Catholic Junior School,Brent,Dollis Hill Lane,London,NW2 6HS,Primary,Roman Catholic,3931.0,3247.0,3162.0,85.86387435,1352.9166666666667,51.561147,-0.233725,Our Lady of Grace Catholic Junior School,240
https://snobe.co.uk/schools/st-johns-roman-catholic-primary-school,100841,St John's Roman Catholic Primary School,Southwark,St Elmo's Road,London,SE16 6SD,Primary,Roman Catholic,3264.0,2205.0,2175.0,84.67120181,918.75,51.500299,-0.041483,St John's Roman Catholic Primary School,240
https://snobe.co.uk/schools/larmenier-sacred-heart-catholic-primary-school,134009,Larmenier & Sacred Heart Catholic Primary School,Hammersmith and Fulham,41a Brook Green,London,W6 7BL,Primary,Roman Catholic,1360.0,1220.0,1140.0,73.44262295,273.54260089686096,51.495292,-0.218121,Larmenier & Sacred Heart Catholic Primary School,446
https://snobe.co.uk/schools/st-anselms-catholic-primary-school-0,101052,St Anselm's Catholic Primary School,Wandsworth,Louisville Road,London,SW17 8RW,Primary,Roman Catholic,2684.0,2482.0,2322.0,76.83319903,1181.904761904762,51.435271,-0.15623,St Anselm's Catholic Primary School,210
https://snobe.co.uk/schools/our-lady-grace-catholic-primary-school,100168,Our Lady of Grace Catholic Primary School,Greenwich,16 Highcombe,London,SE7 7HR,Primary,Roman Catholic,3574.0,2841.0,2808.0,91.20028159,676.4285714285714,51.48143,0.028408,Our Lady of Grace Catholic Primary School,420
https://snobe.co.uk/schools/st-annes-catholic-primary-school,100629,St Anne's Catholic Primary School,Lambeth,6 Durham Street,London,SE11 5JA,Primary,Roman Catholic,2675.0,2122.0,2042.0,82.8934967,1010.4761904761905,51.485126,-0.118803,St Anne's Catholic Primary School,210
https://snobe.co.uk/schools/st-peter-and-paul-catholic-primary-school,102667,St Peter and Paul Catholic Primary School,Merton,Cricket Green,MITCHAM,CR4 4LA,Primary,Roman Catholic,2129.0,2081.0,2032.0,86.9774147,495.4761904761905,51.400117,-0.167047,St Peter and Paul Catholic Primary School,420
https://snobe.co.uk/schools/st-josephs-catholic-primary-and-nursery-school-1,101045,St Joseph's Catholic Primary and Nursery School,Wandsworth,90 Oakhill Road,London,SW15 2QD,Primary,Roman Catholic,2684.0,2482.0,2322.0,76.83319903,1051.6949152542375,51.459195,-0.200439,St Joseph's Catholic Primary and Nursery School,236
https://snobe.co.uk/schools/st-vincent-de-paul-catholic-primary-school-0,101144,St Vincent De Paul Catholic Primary School,Westminster,Morpeth Terrace,LONDON,SW1P 1EP,Primary,Roman Catholic,1209.0,968.0,932.0,85.84710744,410.1694915254237,51.495314,-0.13959,St Vincent De Paul Catholic Primary School,236
https://snobe.co.uk/schools/st-thomas-apostle-college,100857,The St Thomas the Apostle College,Southwark,Hollydale Road,London,SE15 2EB,Secondary,Roman Catholic,3440.0,2545.0,2417.0,71.74852652,254.5,51.471233,-0.056581,The St Thomas the Apostle College,1000
https://snobe.co.uk/schools/our-lady-muswell-catholic-primary-school,102142,Our Lady of Muswell Catholic Primary School,Haringey,Pages Lane,London,N10 1PS,Primary,Roman Catholic,2910.0,2348.0,2273.0,84.92333901,559.047619047619,51.594426,-0.149591,Our Lady of Muswell Catholic Primary School,420
https://snobe.co.uk/schools/st-augustines-catholic-primary-school,102842,St Augustine's Catholic Primary School,Redbridge,Cranbrook Road,Ilford,IG2 6RG,Primary,Roman Catholic,4274.0,3495.0,3435.0,88.81258941,776.6666666666666,51.580447,0.073807,St Augustine's Catholic Primary School,450
https://snobe.co.uk/schools/st-elpheges-rc-junior-school,102996,St Elphege's RC Junior School,Sutton,Mollison Drive,Wallington,SM6 9HY,Primary,Roman Catholic,2439.0,2209.0,2187.0,91.67043911,575.2604166666667,51.356136,-0.127927,St Elphege's RC Junior School,384
https://snobe.co.uk/schools/bishop-thomas-grant-catholic-secondary-school,100638,Bishop Thomas Grant Catholic Secondary School,Lambeth,Belltrees Grove,London,SW16 2HY,Secondary,Roman Catholic,2421.0,2225.0,2057.0,64.08988764,185.41666666666669,51.424972,-0.118713,Bishop Thomas Grant Catholic Secondary School,1200
https://snobe.co.uk/schools/st-teresas-catholic-primary-school-and-nursery,102231,St Teresa's Catholic Primary School and Nursery,Harrow,Long Elmes,Harrow,HA3 6LE,Primary,Roman Catholic,3180.0,2672.0,2622.0,87.5748503,566.1016949152543,51.604217,-0.355408,St Teresa's Catholic Primary School and Nursery,472
https://snobe.co.uk/schools/st-peters-catholic-primary-school-0,100175,St Peter's Catholic Primary School,Greenwich,Crescent Road,London,SE18 7BN,Primary,Roman Catholic,3574.0,2841.0,2808.0,91.20028159,1352.857142857143,51.486614,0.068855,St Peter's Catholic Primary School,210
https://snobe.co.uk/schools/st-teresas-catholic-primary-school,102669,St Teresa's Catholic Primary School,Merton,Montacute Road,Morden,SM4 6RL,Primary,Roman Catholic,2129.0,2081.0,2032.0,86.9774147,408.0392156862745,51.389697,-0.181664,St Teresa's Catholic Primary School,510
https://snobe.co.uk/schools/st-georges-cathedral-catholic-primary-school,100828,St George's Cathedral Catholic Primary School,Southwark,28 Lambeth Road,London,SE1 6HR,Primary,Roman Catholic,3264.0,2205.0,2175.0,84.67120181,938.2978723404256,51.497775,-0.106843,St George's Cathedral Catholic Primary School,235
https://snobe.co.uk/schools/st-francis-rc-primary-school,100826,St Francis RC Primary School,Southwark,Friary Road,London,SE15 1RQ,Primary,Roman Catholic,3264.0,2205.0,2175.0,84.67120181,530.0480769230769,51.480031,-0.067051,St Francis RC Primary School,416
https://snobe.co.uk/schools/cardinal-wiseman-catholic-school,101934,The Cardinal Wiseman Catholic School,Ealing,Greenford Road,Greenford,UB6 9AW,Secondary,Roman Catholic,3752.0,3741.0,3533.0,74.25821973,200.58981233243966,51.525271,-0.352099,The Cardinal Wiseman Catholic School,1865
https://snobe.co.uk/schools/st-marys-catholic-primary-school,100172,St Mary's Catholic Primary School,Greenwich,Glenure Road,London,SE9 1UF,Primary,Roman Catholic,3574.0,2841.0,2808.0,91.20028159,676.4285714285714,51.453534,0.063991,St Mary's Catholic Primary School,420
https://snobe.co.uk/schools/servite-rc-primary-school,100500,Servite RC Primary School,Kensington and Chelsea,252 Fulham Road,London,SW10 9NA,Primary,Roman Catholic,968.0,663.0,611.0,74.81146305,276.25,51.485033,-0.183046,Servite RC Primary School,240
https://snobe.co.uk/schools/st-georges-catholic-school-0,101155,St George's Catholic School,Westminster,Lanark Road,London,W9 1RB,Secondary,Roman Catholic,1779.0,909.0,849.0,66.88668867,121.2,51.532904,-0.187945,St George's Catholic School,750
https://snobe.co.uk/schools/sacred-heart-catholic-primary-school-battersea,131520,"Sacred Heart Catholic Primary School, Battersea",Wandsworth,Este Road,London,SW11 2TD,Primary,Roman Catholic,2684.0,2482.0,2322.0,76.83319903,492.46031746031747,51.469378,-0.166951,"Sacred Heart Catholic Primary School, Battersea",504
https://snobe.co.uk/schools/st-annes-catholic-high-school-girls,102053,St Anne's Catholic High School for Girls,Enfield,Oakthorpe Road,London,N13 5TY,Secondary,Roman Catholic,4036.0,4067.0,3953.0,77.7477256,385.13257575757575,51.616307,-0.107967,St Anne's Catholic High School for Girls,1056
https://snobe.co.uk/schools/saint-marys-catholic-primary-school,100499,Saint Mary's Catholic Primary School,Kensington and Chelsea,East Row,London,W10 5AW,Primary,Roman Catholic,968.0,663.0,611.0,74.81146305,174.4736842105263,51.525081,-0.210774,Saint Mary's Catholic Primary School,380
https://snobe.co.uk/schools/our-lady-victories-catholic-primary-school,101037,Our Lady of Victories Catholic Primary School,Wandsworth,1 Clarendon Drive,London,SW15 1AW,Primary,Roman Catholic,2684.0,2482.0,2322.0,76.83319903,1181.904761904762,51.463805,-0.223206,Our Lady of Victories Catholic Primary School,210
https://snobe.co.uk/schools/st-ursulas-catholic-primary-school,102332,St Ursula's Catholic Primary School,Havering,Straight Road,Romford,RM3 7JS,Primary,Roman Catholic,3462.0,3096.0,3048.0,89.8255814,665.8064516129033,51.604176,0.209063,St Ursula's Catholic Primary School,465
https://snobe.co.uk/schools/st-elizabeth-catholic-primary-school,133288,St Elizabeth Catholic Primary School,Tower Hamlets,Bonner Road,London,E2 9JY,Primary,Roman Catholic,3480.0,2918.0,2858.0,92.2892392,620.8510638297872,51.532712,-0.05141,St Elizabeth Catholic Primary School,470
https://snobe.co.uk/schools/holy-ghost-catholic-primary-school,101036,Holy Ghost Catholic Primary School,Wandsworth,Nightingale Square,London,SW12 8QJ,Primary,Roman Catholic,2684.0,2482.0,2322.0,76.83319903,1181.904761904762,51.447881,-0.156341,Holy Ghost Catholic Primary School,210
https://snobe.co.uk/schools/sacred-heart-high-school,100363,Sacred Heart High School,Hammersmith and Fulham,212 Hammersmith Road,London,W6 7DG,Secondary,Roman Catholic,1566.0,1199.0,1078.0,63.80316931,151.19798234552334,51.493572,-0.223331,Sacred Heart High School,793
https://snobe.co.uk/schools/st-theresas-catholic-primary-school,101335,St Theresa's Catholic Primary School,Barnet,East End Road,London,N3 2TD,Primary,Roman Catholic,4376.0,3709.0,3600.0,84.28147749,1415.648854961832,51.594595,-0.18806,St Theresa's Catholic Primary School,262
https://snobe.co.uk/schools/st-mary-and-st-michael-primary-school,131936,St Mary and St Michael Primary School,Tower Hamlets,Sutton Street,London,E1 0BD,Primary,Roman Catholic,3480.0,2918.0,2858.0,92.2892392,618.2203389830509,51.513708,-0.052899,St Mary and St Michael Primary School,472
https://snobe.co.uk/schools/our-lady-dolours-catholic-primary,101124,Our Lady of Dolours Catholic Primary,Westminster,19 Cirencester Street,London,W2 5SR,Primary,Roman Catholic,1209.0,968.0,932.0,85.84710744,403.3333333333333,51.52149,-0.191282,Our Lady of Dolours Catholic Primary,240
https://snobe.co.uk/schools/our-lady-visitation-catholic-primary-school,101920,Our Lady of the Visitation Catholic Primary School,Ealing,Greenford Road,Greenford,UB6 9AN,Primary,Roman Catholic,4125.0,3570.0,3508.0,88.93557423,756.3559322033898,51.523476,-0.35176,Our Lady of the Visitation Catholic Primary School,472
https://snobe.co.uk/schools/holy-cross-rc-school,100345,Holy Cross RC School,Hammersmith and Fulham,Basuto Road,London,SW6 4BL,Primary,Roman Catholic,1360.0,1220.0,1140.0,73.44262295,188.8544891640867,51.475948,-0.197476,Holy Cross RC School,646
https://snobe.co.uk/schools/sacred-heart-roman-catholic-primary-school-0,101338,Sacred Heart Roman Catholic Primary School,Barnet,2 Oakleigh Park South,London,N20 9JU,Primary,Roman Catholic,4376.0,3709.0,3600.0,84.28147749,883.0952380952381,51.630089,-0.163817,Sacred Heart Roman Catholic Primary School,420
https://snobe.co.uk/schools/our-lady-and-st-johns-catholic-primary-school,102526,Our Lady and St John's Catholic Primary School,Hounslow,Boston Park Road,Brentford,TW8 9JF,Primary,Roman Catholic,3226.0,3027.0,2973.0,88.10703667,1282.6271186440679,51.489956,-0.310908,Our Lady and St John's Catholic Primary School,236
https://snobe.co.uk/schools/st-gregorys-catholic-science-college,101563,St Gregory's Catholic Science College,Brent,Donnington Road,Harrow,HA3 0NB,Secondary,Roman Catholic,3572.0,3350.0,3153.0,73.19402985,316.6351606805293,51.582289,-0.30268,St Gregory's Catholic Science College,1058
https://snobe.co.uk/schools/st-mary-magdalens-catholic-junior-school,101542,St Mary Magdalen's Catholic Junior School,Brent,Linacre Road,London,NW2 5BB,Primary,Roman Catholic,3931.0,3247.0,3162.0,85.86387435,901.9444444444443,51.54836,-0.228999,St Mary Magdalen's Catholic Junior School,360
https://snobe.co.uk/schools/st-edmunds-catholic-school,100951,St Edmund's Catholic School,Tower Hamlets,299 Westferry Road,London,E14 3RS,Primary,Roman Catholic,3480.0,2918.0,2858.0,92.2892392,1296.888888888889,51.492167,-0.024199,St Edmund's Catholic School,225
https://snobe.co.uk/schools/st-bonaventures-rc-school,102787,St Bonaventure's RC School,Newham,Boleyn Road,London,E7 9QD,Secondary,Roman Catholic,4545.0,3943.0,3810.0,70.53005326,303.3076923076923,51.53864,0.025473,St Bonaventure's RC School,1300
https://snobe.co.uk/schools/st-boniface-rc-primary-school,101042,St Boniface RC Primary School,Wandsworth,Undine Street,London,SW17 8PP,Primary,Roman Catholic,2684.0,2482.0,2322.0,76.83319903,787.936507936508,51.427353,-0.164576,St Boniface RC Primary School,315
https://snobe.co.uk/schools/st-angelas-ursuline-school,102786,St Angela's Ursuline School,Newham,St George's Road,London,E7 8HU,Secondary,Roman Catholic,4545.0,3943.0,3810.0,70.53005326,293.3779761904762,51.542111,0.029636,St Angela's Ursuline School,1344
https://snobe.co.uk/schools/la-retraite-roman-catholic-girls-school,100637,La Retraite Roman Catholic Girls' School,Lambeth,Atkins Road,London,SW12 0AB,Secondary,Roman Catholic,2421.0,2225.0,2057.0,64.08988764,195.17543859649123,51.447914,-0.144755,La Retraite Roman Catholic Girls' School,1140
https://snobe.co.uk/schools/st-catherine-catholic-primary-school,102424,St Catherine Catholic Primary School,Hillingdon,Money Lane,West Drayton,UB7 7NX,Primary,Roman Catholic,4230.0,3462.0,3416.0,91.59445407,1479.4871794871797,51.503882,-0.478832,St Catherine Catholic Primary School,234
https://snobe.co.uk/schools/all-saints-catholic-school-and-technology-college,101247,All Saints Catholic School and Technology College,Barking and Dagenham,Terling Road,Dagenham,RM8 1JT,Secondary,Roman Catholic,3540.0,2982.0,2917.0,86.98859826,196.18421052631578,51.562829,0.151337,All Saints Catholic School and Technology College,1520
https://snobe.co.uk/schools/notre-dame-catholic-primary-school,100179,Notre Dame Catholic Primary School,Greenwich,169 Eglinton Road,London,SE18 3SJ,Primary,Roman Catholic,3574.0,2841.0,2808.0,91.20028159,1352.857142857143,51.480271,0.065947,Notre Dame Catholic Primary School,210
https://snobe.co.uk/schools/sacred-heart-mary-girls-school,102354,Sacred Heart of Mary Girls' School,Havering,St Mary's Lane,Upminster,RM14 2QR,Secondary,Roman Catholic,3435.0,3183.0,3073.0,76.40590638,407.55441741357237,51.556835,0.24373,Sacred Heart of Mary Girls' School,781
https://snobe.co.uk/schools/st-chads-catholic-primary-school-2,101802,St Chad's Catholic Primary School,Croydon,Alverston Gardens,London,SE25 6LR,Primary,Roman Catholic,4890.0,4309.0,4227.0,86.72545834,912.9237288135594,51.394463,-0.083382,St Chad's Catholic Primary School,472
https://snobe.co.uk/schools/london-oratory-school,100365,The London Oratory School,Hammersmith and Fulham,Seagrave Road,London,SW6 1RX,Middle deemed secondary,Roman Catholic,,,,,,51.486225,-0.196193,The London Oratory School,1101
https://snobe.co.uk/schools/st-thomas-more-catholic-school-1,102161,St Thomas More Catholic School,Haringey,Glendale Avenue,London,N22 5HN,Secondary,Roman Catholic,2595.0,2242.0,2173.0,78.72435326,196.66666666666666,51.604294,-0.107499,St Thomas More Catholic School,1140
https://snobe.co.uk/schools/st-margaret-clitherow-catholic-primary-school,100180,St Margaret Clitherow Catholic Primary School,Greenwich,Cole Close,London,SE28 8GB,Primary,Roman Catholic,3574.0,2841.0,2808.0,91.20028159,1084.351145038168,51.500964,0.113366,St Margaret Clitherow Catholic Primary School,262
https://snobe.co.uk/schools/st-gregorys-catholic-primary-school,101923,St Gregory's Catholic Primary School,Ealing,Woodfield Road,London,W5 1SL,Primary,Roman Catholic,4125.0,3570.0,3508.0,88.93557423,544.2073170731708,51.524101,-0.307799,St Gregory's Catholic Primary School,656
https://snobe.co.uk/schools/st-raphaels-catholic-primary-school,101925,St Raphael's Catholic Primary School,Ealing,Hartfield Avenue,Northolt,UB5 6NL,Primary,Roman Catholic,4125.0,3570.0,3508.0,88.93557423,671.0526315789474,51.535944,-0.402757,St Raphael's Catholic Primary School,532
https://snobe.co.uk/schools/botwell-house-catholic-primary-school,102422,Botwell House Catholic Primary School,Hillingdon,Botwell Lane,Hayes,UB3 2AB,Primary,Roman Catholic,4230.0,3462.0,3416.0,91.59445407,480.83333333333337,51.507422,-0.419491,Botwell House Catholic Primary School,720
https://snobe.co.uk/schools/sacred-heart-catholic-primary-school-roehampton,101050,"Sacred Heart Catholic Primary School, Roehampton",Wandsworth,Roehampton Lane,London,SW15 5NX,Primary,Roman Catholic,2684.0,2482.0,2322.0,76.83319903,551.5555555555555,51.457612,-0.241943,"Sacred Heart Catholic Primary School, Roehampton",450
https://snobe.co.uk/schools/st-michaels-catholic-grammar-school,101361,St Michael's Catholic Grammar School,Barnet,Nether Street,London,N12 7NJ,Secondary,Roman Catholic,4877.0,4221.0,3910.0,72.4235963,449.04255319148933,51.614398,-0.180642,St Michael's Catholic Grammar School,940
https://snobe.co.uk/schools/gunnersbury-catholic-school,102545,Gunnersbury Catholic School,Hounslow,The Ride,Brentford,TW8 9LB,Secondary,Roman Catholic,3137.0,3180.0,3053.0,71.28930818,258.957654723127,51.492346,-0.316366,Gunnersbury Catholic School,1228
https://snobe.co.uk/schools/st-georges-primary-catholic-voluntary-academy,146176,St George's Primary Catholic Voluntary Academy,Harrow,Sudbury Hill,Harrow,HA1 3SB,Primary,Roman Catholic,3180.0,2672.0,2622.0,87.5748503,636.1904761904761,51.562081,-0.331379,St George's Primary Catholic Voluntary Academy,420
https://snobe.co.uk/schools/st-stephens-catholic-primary-school,101455,St Stephen's Catholic Primary School,Bexley,Ruskin Avenue,Welling,DA16 3QG,Primary,Roman Catholic,3225.0,2734.0,2713.0,92.28237015,650.952380952381,51.464153,0.104048,St Stephen's Catholic Primary School,420
https://snobe.co.uk/schools/oratory-roman-catholic-primary-school,100491,Oratory Roman Catholic Primary School,Kensington and Chelsea,Bury Walk,London,SW3 6QH,Primary,Roman Catholic,968.0,663.0,611.0,74.81146305,315.7142857142857,51.490617,-0.170292,Oratory Roman Catholic Primary School,210
https://snobe.co.uk/schools/cardinal-vaughan-memorial-rc-school,100506,The Cardinal Vaughan Memorial RC School,Kensington and Chelsea,89 Addison Road,London,W14 8BZ,Secondary,Roman Catholic,1045.0,622.0,574.0,66.72025723,67.46203904555314,51.503873,-0.211792,The Cardinal Vaughan Memorial RC School,922
https://snobe.co.uk/schools/mount-carmel-catholic-primary-school,101919,Mount Carmel Catholic Primary School,Ealing,Little Ealing Lane,London,W5 4EA,Primary,Roman Catholic,4125.0,3570.0,3508.0,88.93557423,800.4484304932735,51.498049,-0.308362,Mount Carmel Catholic Primary School,446
https://snobe.co.uk/schools/st-cecilias-catholic-primary-school,102993,St Cecilia's Catholic Primary School,Sutton,London Road,Sutton,SM3 9DL,Primary,Roman Catholic,2439.0,2209.0,2187.0,91.67043911,529.736211031175,51.376892,-0.222161,St Cecilia's Catholic Primary School,417
https://snobe.co.uk/schools/good-shepherd-catholic-primary-and-nursery-school,142587,Good Shepherd Catholic Primary and Nursery School,Croydon,Dunley Drive,Croydon,CR0 0RG,Primary,Roman Catholic,4890.0,4309.0,4227.0,86.72545834,1676.6536964980546,51.352799,-0.020664,Good Shepherd Catholic Primary and Nursery School,257
https://snobe.co.uk/schools/richard-challoner-school,102606,Richard Challoner School,Kingston upon Thames,Manor Drive North,New Malden,KT3 5PE,Secondary,Roman Catholic,2120.0,1908.0,1837.0,73.53249476,201.6913319238901,51.385276,-0.26488,Richard Challoner School,946
https://snobe.co.uk/schools/st-augustines-catholic-primary-school-and-nursery,100725,St Augustine's Catholic Primary School and Nursery,Lewisham,Dunfield Road,London,SE6 3RD,Primary,Roman Catholic,3494.0,2939.0,2916.0,89.9625723,1399.5238095238096,51.42436,-0.016697,St Augustine's Catholic Primary School and Nursery,210
https://snobe.co.uk/schools/st-catherines-rc-school,101333,St Catherine's RC School,Barnet,Vale Drive,Barnet,EN5 2ED,Primary,Roman Catholic,4376.0,3709.0,3600.0,84.28147749,787.4734607218684,51.648831,-0.194702,St Catherine's RC School,471
https://snobe.co.uk/schools/st-joan-arc-rc-primary-school,100449,St Joan of Arc RC Primary School,Islington,Northolme Road,London,N5 2UX,Primary,Roman Catholic,1905.0,1626.0,1569.0,80.93480935,387.14285714285717,51.556611,-0.096076,St Joan of Arc RC Primary School,420
https://snobe.co.uk/schools/st-marks-catholic-school,102543,St Mark's Catholic School,Hounslow,106 Bath Road,Hounslow,TW3 3EJ,Secondary,Roman Catholic,3137.0,3180.0,3053.0,71.28930818,282.16503992901505,51.468416,-0.374967,St Mark's Catholic School,1127
https://snobe.co.uk/schools/our-lady-and-st-joseph-catholic-primary-school-1,100264,Our Lady and St Joseph Catholic Primary School,Hackney,Buckingham Road,London,N1 4JB,Primary,Catholic,2495.0,1817.0,1782.0,84.9752339,865.2380952380952,51.544943,-0.08041,Our Lady and St Joseph Catholic Primary School,210
https://snobe.co.uk/schools/st-robert-southwell-rc-primary-school,101543,St Robert Southwell Catholic Primary School,Brent,Slough Lane,London,NW9 8YD,Primary,Roman Catholic,3931.0,3247.0,3162.0,85.86387435,773.0952380952381,51.582504,-0.266932,St Robert Southwell Catholic Primary School,420
https://snobe.co.uk/schools/our-lady-lourdes-catholic-primary-school-4,100736,Our Lady of Lourdes Catholic Primary School,Lewisham,Belmont Hill,London,SE13 5DZ,Primary,Roman Catholic,3494.0,2939.0,2916.0,89.9625723,699.7619047619048,,,Our Lady of Lourdes Catholic Primary School,420
https://snobe.co.uk/schools/la-salette-catholic-primary-school,102330,La Salette Catholic Primary School,Havering,Dunedin Road,Rainham,RM13 8SP,Primary,Roman Catholic,3462.0,3096.0,3048.0,89.8255814,1474.2857142857142,51.523084,0.190953,La Salette Catholic Primary School,210
https://snobe.co.uk/schools/st-william-york-catholic-primary-school,100737,St William of York Catholic Primary School,Lewisham,Brockley Park,London,SE23 1PS,Primary,Roman Catholic,3494.0,2939.0,2916.0,89.9625723,1399.5238095238096,51.444306,-0.03916,St William of York Catholic Primary School,210
https://snobe.co.uk/schools/st-marys-catholic-primary-school-chiswick,102529,"St Mary's Catholic Primary School ,Chiswick",Hounslow,Duke Road,London,W4 2DF,Primary,Roman Catholic,3226.0,3027.0,2973.0,88.10703667,1441.4285714285716,51.488933,-0.258169,"St Mary's Catholic Primary School ,Chiswick",210
https://snobe.co.uk/schools/margaret-roper-catholic-primary-school,101797,Margaret Roper Catholic Primary School,Croydon,Russell Hill Road,Purley,CR8 2XP,Primary,Roman Catholic,4890.0,4309.0,4227.0,86.72545834,1906.637168141593,51.34406,-0.120148,Margaret Roper Catholic Primary School,226
https://snobe.co.uk/schools/our-lady-lourdes-rc-school,101331,Our Lady of Lourdes RC School,Barnet,Bow Lane,London,N12 0JP,Primary,Roman Catholic,4376.0,3709.0,3600.0,84.28147749,1415.648854961832,51.605087,-0.178039,Our Lady of Lourdes RC School,262
https://snobe.co.uk/schools/our-lady-and-st-georges-catholic-primary-school,135193,Our Lady and St George's Catholic Primary School,Waltham Forest,Shernhall Street,London,E17 3EA,Primary,Roman Catholic,3688.0,3129.0,3087.0,90.18855864,695.3333333333333,51.589668,-0.007354,Our Lady and St George's Catholic Primary School,450
https://snobe.co.uk/schools/maria-fidelis-catholic-school-fcj,100055,Maria Fidelis Catholic School FCJ,Camden,1 - 39 Drummond Crescent,London,NW1 1LY,Secondary,Roman Catholic,1547.0,1315.0,1243.0,75.36121673,143.40239912758997,51.529789,-0.133225,Maria Fidelis Catholic School FCJ,917
https://snobe.co.uk/schools/st-james-roman-catholic-primary-school,101656,St James' Roman Catholic Primary School,Bromley,Maybury Close,Orpington,BR5 1BL,Primary,Roman Catholic,4062.0,3312.0,3268.0,89.00966184,1761.7021276595742,51.389382,0.066348,St James' Roman Catholic Primary School,188
https://snobe.co.uk/schools/st-bedes-catholic-primary-school,100631,St Bede's Catholic Primary School,Lambeth,Thornton Road,London,SW12 0LF,Primary,Roman Catholic,2675.0,2122.0,2042.0,82.8934967,902.9787234042553,51.444947,-0.135176,St Bede's Catholic Primary School,235
https://snobe.co.uk/schools/saint-john-bosco-college,135762,Saint John Bosco College,Wandsworth,Parkham Street,London,SW11 3DQ,Secondary,Roman Catholic,2095.0,2182.0,2028.0,64.34463795,207.8095238095238,51.474734,-0.171935,Saint John Bosco College,1050
https://snobe.co.uk/schools/regina-coeli-catholic-primary-school,101800,Regina Coeli Catholic Primary School,Croydon,173 Pampisford Road,South Croydon,CR2 6DF,Primary,Roman Catholic,4890.0,4309.0,4227.0,86.72545834,1025.952380952381,51.355893,-0.106091,Regina Coeli Catholic Primary School,420
https://snobe.co.uk/schools/convent-jesus-and-mary-language-college,101561,Convent of Jesus and Mary Language College,Brent,Crownhill Road,London,NW10 4EP,Secondary,Roman Catholic,3572.0,3350.0,3153.0,73.19402985,320.88122605363986,51.538383,-0.246086,Convent of Jesus and Mary Language College,1044
https://snobe.co.uk/schools/holy-innocents-catholic-primary-school,101661,Holy Innocents Catholic Primary School,Bromley,Mitchell Road,Orpington,BR6 9JT,Primary,Roman Catholic,4062.0,3312.0,3268.0,89.00966184,1362.962962962963,51.366273,0.09157,Holy Innocents Catholic Primary School,243
https://snobe.co.uk/schools/st-mary-magdalens-catholic-primary-school-0,100720,St Mary Magdalen's Catholic Primary School,Lewisham,Howson Road,London,SE4 2BB,Primary,Roman Catholic,3494.0,2939.0,2916.0,89.9625723,1399.5238095238096,51.458146,-0.038107,St Mary Magdalen's Catholic Primary School,210
https://snobe.co.uk/schools/st-peter-and-st-paul-catholic-primary-school-1,100447,St Peter and St Paul Catholic Primary School,Islington,Compton Street,London,EC1V 0EU,Primary,Roman Catholic,1905.0,1626.0,1569.0,80.93480935,677.5,51.524972,-0.100914,St Peter and St Paul Catholic Primary School,240
https://snobe.co.uk/schools/st-thomas-becket-roman-catholic-primary-school,100177,St Thomas A Becket Roman Catholic Primary School,Greenwich,Mottisfont Road,London,SE2 9LY,Primary,Roman Catholic,3574.0,2841.0,2808.0,91.20028159,676.4285714285714,51.49156,0.104201,St Thomas A Becket Roman Catholic Primary School,420
https://snobe.co.uk/schools/gumley-house-rc-convent-school-fcj,102544,"Gumley House RC Convent School, FCJ",Hounslow,St John's Road,Isleworth,TW7 6XF,Secondary,Roman Catholic,3137.0,3180.0,3053.0,71.28930818,246.13003095975233,51.469083,-0.330281,"Gumley House RC Convent School, FCJ",1292
https://snobe.co.uk/schools/st-james-catholic-high-school,101364,St James' Catholic High School,Barnet,Great Strand,London,NW9 5PE,Secondary,Roman Catholic,4877.0,4221.0,3910.0,72.4235963,301.5,51.600831,-0.240936,St James' Catholic High School,1400
https://snobe.co.uk/schools/wimbledon-college,102681,Wimbledon College,Merton,Edge Hill,London,SW19 4NS,Secondary,Roman Catholic,1878.0,2042.0,1927.0,69.00097943,163.4907926341073,51.418667,-0.221792,Wimbledon College,1249
https://snobe.co.uk/schools/st-ignatius-college,102058,St Ignatius College,Enfield,Turkey Street,Enfield,EN1 4NP,Secondary,Roman Catholic,4036.0,4067.0,3953.0,77.7477256,330.9194467046379,51.672908,-0.05587,St Ignatius College,1229
https://snobe.co.uk/schools/thomas-more-catholic-school,101821,Thomas More Catholic School,Croydon,Russell Hill Road,Purley,CR8 2XP,Secondary,Roman Catholic,4128.0,4421.0,4222.0,70.9567971,520.1176470588235,51.34406,-0.120148,Thomas More Catholic School,850
https://snobe.co.uk/schools/st-saviours-catholic-primary-school,100733,St Saviour's Catholic Primary School,Lewisham,10 Bonfield Road,London,SE13 6AL,Primary,Roman Catholic,3494.0,2939.0,2916.0,89.9625723,1277.8260869565217,51.459945,-0.010361,St Saviour's Catholic Primary School,230
https://snobe.co.uk/schools/palmer-catholic-academy,137088,The Palmer Catholic Academy,Redbridge,Aldborough Road South,Ilford,IG3 8EU,Secondary,Roman Catholic,3709.0,3444.0,3205.0,67.59581882,293.35604770017034,51.5653,0.092207,The Palmer Catholic Academy,1174
https://snobe.co.uk/schools/st-albans-catholic-primary-school,102336,St Alban's Catholic Primary School,Havering,Heron Flight Avenue,Hornchurch,RM12 5LN,Primary,Roman Catholic,3462.0,3096.0,3048.0,89.8255814,1474.2857142857142,51.537665,0.197998,St Alban's Catholic Primary School,210
https://snobe.co.uk/schools/ursuline-high-school-wimbledon,102683,Ursuline High School Wimbledon,Merton,Crescent Road,London,SW20 8HA,Secondary,Roman Catholic,1878.0,2042.0,1927.0,69.00097943,147.33044733044733,51.414024,-0.222821,Ursuline High School Wimbledon,1386
https://snobe.co.uk/schools/finchley-catholic-high-school,101362,Finchley Catholic High School,Barnet,Woodside Lane,London,N12 8TA,Secondary,Roman Catholic,4877.0,4221.0,3910.0,72.4235963,351.75,51.622219,-0.181615,Finchley Catholic High School,1200
https://snobe.co.uk/schools/st-aloysius-rc-college,100459,St Aloysius RC College,Islington,Hornsey Lane,London,N6 5LY,Secondary,Roman Catholic,1530.0,1585.0,1503.0,68.58044164,137.82608695652175,51.569821,-0.138642,St Aloysius RC College,1150
https://snobe.co.uk/schools/john-fisher-school,103009,The John Fisher School,Sutton,Peaks Hill,Purley,CR8 3YP,Secondary,Roman Catholic,3511.0,2760.0,2674.0,71.99275362,231.93277310924373,51.345097,-0.133833,The John Fisher School,1190
https://snobe.co.uk/schools/st-marys-catholic-high-school,101814,St Mary's Catholic High School,Croydon,Woburn Road,Croydon,CR9 2EE,Secondary,Roman Catholic,4128.0,4421.0,4222.0,70.9567971,396.5022421524664,51.380618,-0.098,St Mary's Catholic High School,1115
https://snobe.co.uk/schools/salvatorian-roman-catholic-college,102244,Salvatorian Roman Catholic College,Harrow,High Road,Harrow,HA3 5DY,Secondary,Roman Catholic,2634.0,2824.0,2593.0,65.65155807,420.8643815201192,51.599968,-0.339144,Salvatorian Roman Catholic College,671
https://snobe.co.uk/schools/douay-martyrs-catholic-school,102448,The Douay Martyrs Catholic School,Hillingdon,Edinburgh Drive,Uxbridge,UB10 8QY,Secondary,Roman Catholic,3815.0,3622.0,3412.0,67.20044174,279.2598303777949,51.559965,-0.444416,The Douay Martyrs Catholic School,1297
https://snobe.co.uk/schools/good-shepherd-rc-school,100722,Good Shepherd RC School,Lewisham,Moorside Road,Bromley,BR1 5EP,Primary,Roman Catholic,3494.0,2939.0,2916.0,89.9625723,1013.448275862069,51.426849,0.009836,Good Shepherd RC School,290
https://snobe.co.uk/schools/st-matthew-academy,135264,St Matthew Academy,Lewisham,St Joseph's Vale,London,SE3 0XX,All-through,Roman Catholic,,,,,,51.464218,-0.000415,St Matthew Academy,1650
https://snobe.co.uk/schools/holy-family-catholic-school,100964,Holy Family Catholic School,Tower Hamlets,Wades Place,London,E14 0DE,Primary,Roman Catholic,3480.0,2918.0,2858.0,92.2892392,1389.5238095238096,51.510145,-0.019501,Holy Family Catholic School,210
https://snobe.co.uk/schools/ursuline-academy-ilford,137418,The Ursuline Academy Ilford,Redbridge,Morland Road,Ilford,IG1 4JU,Secondary,Roman Catholic,3709.0,3444.0,3205.0,67.59581882,453.1578947368421,51.562644,0.070111,The Ursuline Academy Ilford,760
https://snobe.co.uk/schools/st-aidans-catholic-primary-academy,140295,St Aidan's Catholic Primary Academy,Redbridge,Benton Road,Ilford,IG1 4AS,Primary,Roman Catholic,4274.0,3495.0,3435.0,88.81258941,832.1428571428571,51.566731,0.090657,St Aidan's Catholic Primary Academy,420
https://snobe.co.uk/schools/st-agathas-catholic-primary-school,102597,St Agatha's Catholic Primary School,Kingston upon Thames,St Agatha's Drive,Kingston upon Thames,KT2 5TY,Primary,Roman Catholic,1702.0,1568.0,1537.0,88.1377551,373.3333333333333,51.4172,0.303,St Agatha's Catholic Primary School,420
https://snobe.co.uk/schools/campion-school,102350,The Campion School,Havering,Wingletye Lane,Hornchurch,RM11 3BX,Secondary,Roman Catholic,3435.0,3183.0,3073.0,76.40590638,366.283084004603,51.579945,0.233464,The Campion School,869
https://snobe.co.uk/schools/bishop-douglass-school-finchley,101365,Bishop Douglass School Finchley,Barnet,Hamilton Road,London,N2 0SQ,Secondary,Roman Catholic,4877.0,4221.0,3910.0,72.4235963,390.8333333333333,51.594066,-0.178293,Bishop Douglass School Finchley,1080
https://snobe.co.uk/schools/st-winifreds-rc-primary-school,142456,St Winifred's RC Primary School,Lewisham,Newstead Road,London,SE12 0SJ,Primary,Roman Catholic,3494.0,2939.0,2916.0,89.9625723,699.7619047619048,51.447734,0.009602,St Winifred's RC Primary School,420
https://snobe.co.uk/schools/st-mary-angels-catholic-primary-school,101137,St. Mary of the Angels Catholic Primary School,Westminster,Shrewsbury Road,London,W2 5PR,Primary,Roman Catholic,1209.0,968.0,932.0,85.84710744,300.62111801242236,51.518438,-0.197485,St. Mary of the Angels Catholic Primary School,322
https://snobe.co.uk/schools/st-josephs-college-2,101820,St Joseph's College,Croydon,Beulah Hill,London,SE19 3HL,Secondary,Roman Catholic,4128.0,4421.0,4222.0,70.9567971,400.815956482321,51.420714,-0.107281,St Joseph's College,1103
https://snobe.co.uk/schools/st-philomenas-catholic-high-school-girls,103013,St Philomena's Catholic High School for Girls,Sutton,Shorts Road,Carshalton,SM5 3PS,Secondary,Roman Catholic,3511.0,2760.0,2674.0,71.99275362,178.17947062621047,51.364278,-0.169742,St Philomena's Catholic High School for Girls,1549
https://snobe.co.uk/schools/holy-cross-school,102607,The Holy Cross School,Kingston upon Thames,25 Sandal Road,New Malden,KT3 5AR,Secondary,Roman Catholic,2120.0,1908.0,1837.0,73.53249476,224.73498233215548,51.397917,-0.261671,The Holy Cross School,849
https://snobe.co.uk/schools/st-marys-catholic-primary-school-isleworth,102528,"St Mary's Catholic Primary School, Isleworth",Hounslow,South Street,Isleworth,TW7 7EE,Primary,Roman Catholic,3226.0,3027.0,2973.0,88.10703667,720.7142857142858,51.469278,-0.327539,"St Mary's Catholic Primary School, Isleworth",420
https://snobe.co.uk/schools/trinity-catholic-high-school,102860,Trinity Catholic High School,Redbridge,Mornington Road,Woodford Green,IG8 0TP,Secondary,Roman Catholic,3709.0,3444.0,3205.0,67.59581882,218.1127295756808,51.616663,0.0211,Trinity Catholic High School,1579
https://snobe.co.uk/schools/st-thomas-becket-catholic-primary-school-0,101796,St Thomas Becket Catholic Primary School,Croydon,Becket Close,London,SE25 5BN,Primary,Roman Catholic,4890.0,4309.0,4227.0,86.72545834,1025.952380952381,51.389162,-0.070567,St Thomas Becket Catholic Primary School,420
https://snobe.co.uk/schools/st-james-great-rc-primary-and-nursery-school,101816,St James the Great RC Primary and Nursery School,Croydon,Windsor Road,Thornton Heath,CR7 8HJ,Primary,Roman Catholic,4890.0,4309.0,4227.0,86.72545834,1058.7223587223586,51.406255,-0.105678,St James the Great RC Primary and Nursery School,407
https://snobe.co.uk/schools/st-catherines-catholic-school,137681,St Catherine's Catholic School,Bexley,Watling Street,Bexleyheath,DA6 7QJ,Secondary,Roman Catholic,3303.0,2996.0,2885.0,70.66088117,285.33333333333337,51.454731,0.154382,St Catherine's Catholic School,1050
https://snobe.co.uk/schools/st-columbas-catholic-boys-school,101477,St Columba's Catholic Boys' School,Bexley,Halcot Avenue,Bexleyheath,DA6 7QB,Secondary,Roman Catholic,3303.0,2996.0,2885.0,70.66088117,332.88888888888886,51.452692,0.155222,St Columba's Catholic Boys' School,900
https://snobe.co.uk/schools/st-john-fisher-rc-primary-school,102671,St John Fisher RC Primary School,Merton,Grand Drive,London,SW20 9NA,Primary,Roman Catholic,2129.0,2081.0,2032.0,86.9774147,466.59192825112103,51.397101,-0.228796,St John Fisher RC Primary School,446
https://snobe.co.uk/schools/st-marys-rc-junior-school,101798,St Mary's RC Junior School,Croydon,Sydenham Road,Croydon,CR0 2EW,Primary,Roman Catholic,4890.0,4309.0,4227.0,86.72545834,1196.9444444444446,51.380599,-0.095156,St Mary's RC Junior School,360
https://snobe.co.uk/schools/st-thomas-more-catholic-primary-school,100176,St Thomas More Catholic Primary School,Greenwich,Appleton Road,London,SE9 6NS,Primary,Roman Catholic,3574.0,2841.0,2808.0,91.20028159,1352.857142857143,51.462582,0.044921,St Thomas More Catholic Primary School,210
https://snobe.co.uk/schools/st-pauls-academy,105135,St Paul's Academy,Greenwich,Finchale Road,London,SE2 9PX,Secondary,Roman Catholic,2928.0,3090.0,2795.0,63.81877023,257.5,51.49251,0.105412,St Paul's Academy,1200
https://snobe.co.uk/schools/st-georges-catholic-primary-school,102038,St George's Catholic Primary School,Enfield,Gordon Road,Enfield,EN2 0QA,Primary,Roman Catholic,3990.0,3309.0,3299.0,95.19492294,648.8235294117648,51.659889,-0.081152,St George's Catholic Primary School,510
https://snobe.co.uk/schools/st-antonys-catholic-primary-school,102844,St Antony's Catholic Primary School,Redbridge,Mornington Road,Woodford Green,IG8 0TX,Primary,Roman Catholic,4274.0,3495.0,3435.0,88.81258941,832.1428571428571,51.616125,0.024139,St Antony's Catholic Primary School,420
https://snobe.co.uk/schools/st-philomenas-primary-school,141482,St Philomena's Primary School,Bromley,Chelsfield Road,Orpington,BR5 4DR,Primary,Roman Catholic,4062.0,3312.0,3268.0,89.00966184,1592.3076923076924,51.382246,0.115508,St Philomena's Primary School,208
https://snobe.co.uk/schools/st-monicas-rc-primary-school,102039,St Monica's RC Primary School,Enfield,Cannon Road,London,N14 7HE,Primary,Roman Catholic,3990.0,3309.0,3299.0,95.19492294,732.0796460176991,51.623053,-0.120414,St Monica's RC Primary School,452
https://snobe.co.uk/schools/st-bernadette-catholic-primary-school,102423,St Bernadette Catholic Primary School,Hillingdon,160 Long Lane,Uxbridge,UB10 0EH,Primary,Roman Catholic,4230.0,3462.0,3416.0,91.59445407,733.4745762711864,51.539642,-0.451209,St Bernadette Catholic Primary School,472
https://snobe.co.uk/schools/st-swithun-wells-catholic-primary-school,102421,St Swithun Wells Catholic Primary School,Hillingdon,Hunters Hill,Ruislip,HA4 9HS,Primary,Roman Catholic,4230.0,3462.0,3416.0,91.59445407,1442.5,51.56415,-0.392045,St Swithun Wells Catholic Primary School,240
https://snobe.co.uk/schools/st-ursulas-convent-school,100193,St Ursula's Convent School,Greenwich,Crooms Hill,London,SE10 8HN,Secondary,Roman Catholic,2928.0,3090.0,2795.0,63.81877023,457.77777777777777,51.475785,-0.005784,St Ursula's Convent School,675
https://snobe.co.uk/schools/st-gildas-catholic-junior-school,102151,St Gildas' Catholic Junior School,Haringey,Oakington Way,London,N8 9EP,Primary,Roman Catholic,2910.0,2348.0,2273.0,84.92333901,1956.6666666666667,51.575744,-0.120952,St Gildas' Catholic Junior School,120
https://snobe.co.uk/schools/st-peter-chanel-catholic-primary-school,101461,St Peter Chanel Catholic Primary School,Bexley,Baugh Road,Sidcup,DA14 5ED,Primary,Roman Catholic,3225.0,2734.0,2713.0,92.28237015,1301.904761904762,51.420351,0.118345,St Peter Chanel Catholic Primary School,210
https://snobe.co.uk/schools/la-sainte-union-catholic-secondary-school,100059,La Sainte Union Catholic Secondary School,Camden,Highgate Road,London,NW5 1RP,Secondary,Roman Catholic,1547.0,1315.0,1243.0,75.36121673,107.87530762920427,51.56,-0.149416,La Sainte Union Catholic Secondary School,1219
https://snobe.co.uk/schools/our-lady-rosary-catholic-primary-school,101456,Our Lady of the Rosary Catholic Primary School,Bexley,Holbeach Gardens,Sidcup,DA15 8QW,Primary,Roman Catholic,3225.0,2734.0,2713.0,92.28237015,650.952380952381,51.44793,0.092954,Our Lady of the Rosary Catholic Primary School,420
https://snobe.co.uk/schools/st-aidans-catholic-primary-school-1,101801,St Aidan's Catholic Primary School,Croydon,Portnalls Road,Coulsdon,CR5 3DE,Primary,Roman Catholic,4890.0,4309.0,4227.0,86.72545834,2051.904761904762,51.31486,-0.151289,St Aidan's Catholic Primary School,210
https://snobe.co.uk/schools/newman-catholic-college,101564,Newman Catholic College,Brent,Harlesden Road,London,NW10 3RN,Secondary,Roman Catholic,3572.0,3350.0,3153.0,73.19402985,335.0,51.537588,-0.239209,Newman Catholic College,1000
https://snobe.co.uk/schools/st-teresa-catholic-primary-school-1,101238,The St Teresa Catholic Primary School,Barking and Dagenham,Bowes Road,Dagenham,RM8 2XJ,Primary,Roman Catholic,4064.0,3038.0,3028.0,96.24753127,1320.8695652173913,51.550677,0.124266,The St Teresa Catholic Primary School,230
https://snobe.co.uk/schools/ss-peter-and-pauls-catholic-primary-school-0,102848,SS Peter and Paul's Catholic Primary School,Redbridge,Gordon Road,Ilford,IG1 1SA,Primary,Roman Catholic,4274.0,3495.0,3435.0,88.81258941,832.1428571428571,51.558133,0.08719,SS Peter and Paul's Catholic Primary School,420
https://snobe.co.uk/schools/st-francis-catholic-primary-school-5,102770,St Francis' Catholic Primary School,Newham,Maryland Park,London,E15 1HD,Primary,Roman Catholic,4815.0,3919.0,3852.0,90.91605001,933.0952380952381,51.548597,0.005982,St Francis' Catholic Primary School,420
https://snobe.co.uk/schools/st-bernadettes-catholic-primary-school-8,102229,St Bernadette's Catholic Primary School,Harrow,Clifton Road,Harrow,HA3 9NS,Primary,Roman Catholic,3180.0,2672.0,2622.0,87.5748503,558.9958158995815,51.587774,-0.289064,St Bernadette's Catholic Primary School,478
https://snobe.co.uk/schools/our-lady-lourdes-rc-primary-school-1,102843,Our Lady of Lourdes RC Primary School,Redbridge,Chestnut Drive,London,E11 2TA,Primary,Roman Catholic,4274.0,3495.0,3435.0,88.81258941,776.6666666666666,51.574659,0.02055,Our Lady of Lourdes RC Primary School,450
https://snobe.co.uk/schools/st-margaret-clitherow-rc-primary-school-0,101548,St Margaret Clitherow RC Primary School,Brent,Quainton Street,London,NW10 0BG,Primary,Roman Catholic,3931.0,3247.0,3162.0,85.86387435,1381.7021276595744,51.561768,-0.260897,St Margaret Clitherow RC Primary School,235
https://snobe.co.uk/schools/st-josephs-rc-infant-school,101336,St Joseph's RC Infant School,Barnet,Watford Way,London,NW4 4TY,Primary,Roman Catholic,4376.0,3709.0,3600.0,84.28147749,2060.5555555555557,51.58729,-0.231455,St Joseph's RC Infant School,180
https://snobe.co.uk/schools/st-marys-catholic-infant-school-0,101799,St Mary's Catholic Infant School,Croydon,Bedford Park,Croydon,CR0 2AQ,Primary,Roman Catholic,4890.0,4309.0,4227.0,86.72545834,2872.6666666666665,51.378966,-0.098744,St Mary's Catholic Infant School,150
https://snobe.co.uk/schools/st-marys-priory-rc-infant-school,102147,St Mary's Priory RC Infant School,Haringey,Hermitage Road,London,N15 5RE,Primary,Roman Catholic,2910.0,2348.0,2273.0,84.92333901,2608.8888888888887,51.580487,-0.085654,St Mary's Priory RC Infant School,90
https://snobe.co.uk/schools/st-francis-de-sales-rc-infant-school,102149,St Francis de Sales RC Infant School,Haringey,Church Road,London,N17 8AZ,Primary,Roman Catholic,2910.0,2348.0,2273.0,84.92333901,1304.4444444444443,51.602964,-0.068969,St Francis de Sales RC Infant School,180
https://snobe.co.uk/schools/notre-dame-roman-catholic-girls-school,100859,Notre Dame Roman Catholic Girls' School,Southwark,118 St George's Road,London,SE1 6EX,Secondary,Roman Catholic,3440.0,2545.0,2417.0,71.74852652,410.4838709677419,51.496981,-0.106112,Notre Dame Roman Catholic Girls' School,620
https://snobe.co.uk/schools/convent-jesus-and-mary-rc-infant-school,101544,Convent of Jesus and Mary RC Infant School,Brent,21 Park Avenue,London,NW2 5AN,Primary,Roman Catholic,3931.0,3247.0,3162.0,85.86387435,1202.5925925925926,51.54838,-0.226763,Convent of Jesus and Mary RC Infant School,270
https://snobe.co.uk/schools/annunciation-catholic-infant-school,101330,The Annunciation Catholic Infant School,Barnet,Thirleby Road,Edgware,HA8 0HQ,Primary,Roman Catholic,4376.0,3709.0,3600.0,84.28147749,1598.7068965517242,51.602762,-0.260125,The Annunciation Catholic Infant School,232
https://snobe.co.uk/schools/st-josephs-catholic-infants-school,100854,St Joseph's Catholic Infants School,Southwark,Pitman Street,London,SE5 0TS,Primary,Roman Catholic,3264.0,2205.0,2175.0,84.67120181,1050.0,51.479503,-0.099693,St Joseph's Catholic Infants School,210
https://snobe.co.uk/schools/our-lady-grace-rc-infant-and-nursery-school-0,101547,Our Lady of Grace RC Infant and Nursery School,Brent,Dollis Hill Avenue,London,NW2 6EU,Primary,Roman Catholic,3931.0,3247.0,3162.0,85.86387435,1803.8888888888887,51.563385,-0.225905,Our Lady of Grace RC Infant and Nursery School,180
https://snobe.co.uk/schools/st-elpheges-rc-infants-school,102997,St Elphege's RC Infants' School,Sutton,Mollison Drive,Wallington,SM6 9HY,Primary,Roman Catholic,2439.0,2209.0,2187.0,91.67043911,575.2604166666667,51.356136,-0.127927,St Elphege's RC Infants' School,384
https://snobe.co.uk/schools/more-house-school,100521,More House School,Kensington and Chelsea,22-24 Pont Street,Knightsbridge,SW1X 0AA,Not applicable,Roman Catholic,,,,,,51.497344,-0.159433,More House School,211
https://snobe.co.uk/schools/st-josephs-catholic-infant-school,101546,St Joseph's Catholic Infant School,Brent,Waverley Avenue,Wembley,HA9 6TA,Primary,Roman Catholic,3931.0,3247.0,3162.0,85.86387435,1202.5925925925926,51.551821,-0.287687,St Joseph's Catholic Infant School,270
https://snobe.co.uk/schools/st-richard-reynolds-catholic-primary-school,139122,St Richard Reynolds Catholic Primary School,Richmond upon Thames,Clifden Road,London,TW1 4LT,Primary,Roman Catholic,2243.0,1812.0,1782.0,88.57615894,862.8571428571428,51.447912,-0.335155,St Richard Reynolds Catholic Primary School,210
https://snobe.co.uk/schools/st-marys-rc-infants-school,102995,St Mary's RC Infants School,Sutton,West Street,Carshalton,SM5 2PT,Primary,Roman Catholic,2439.0,2209.0,2187.0,91.67043911,686.0248447204968,51.366453,-0.167343,St Mary's RC Infants School,322
https://snobe.co.uk/schools/sacred-heart-language-college,102243,The Sacred Heart Language College,Harrow,High Street,Harrow,HA3 7AY,Secondary,Roman Catholic,2634.0,2824.0,2593.0,65.65155807,362.05128205128204,51.599503,-0.336201,The Sacred Heart Language College,780
https://snobe.co.uk/schools/st-peter-chains-rc-infant-school,102148,St Peter-in-Chains RC Infant School,Haringey,Oakington Way,London,N8 9EP,Primary,Roman Catholic,2910.0,2348.0,2273.0,84.92333901,2608.8888888888887,51.575744,-0.120952,St Peter-in-Chains RC Infant School,90
https://snobe.co.uk/schools/bishop-challoner-school,101683,Bishop Challoner School,Bromley,228 Bromley Road,Bromley,BR2 0BS,Not applicable,Roman Catholic,,,,,,51.40689,-0.003678,Bishop Challoner School,450
https://snobe.co.uk/schools/st-benedicts-school,101947,St Benedict's School,Ealing,54 Eaton Rise,,W5 2ES,Not applicable,Roman Catholic,,,,,,51.520876,-0.306795,St Benedict's School,1255
https://snobe.co.uk/schools/st-richard-reynolds-catholic-high-school,139121,St Richard Reynolds Catholic High School,Richmond upon Thames,Clifden Road,London,TW1 4LT,Secondary,Roman Catholic,2256.0,1946.0,1831.0,64.95375128,180.1851851851852,51.447912,-0.335155,St Richard Reynolds Catholic High School,1080
https://snobe.co.uk/schools/coloma-convent-girls-school,101823,Coloma Convent Girls' School,Croydon,Upper Shirley Road,Croydon,CR9 5AS,Secondary,Roman Catholic,4128.0,4421.0,4222.0,70.9567971,418.2592242194891,51.369328,-0.05291,Coloma Convent Girls' School,1057
https://snobe.co.uk/schools/st-john-xxiii-catholic-primary-school,100355,St John XXIII Catholic Primary School,Hammersmith and Fulham,1 India Way,London,W12 7QT,Primary,Roman Catholic,1360.0,1220.0,1140.0,73.44262295,273.54260089686096,51.511498,-0.233673,St John XXIII Catholic Primary School,446
https://snobe.co.uk/schools/westminster-cathedral-choir-school,101166,Westminster Cathedral Choir School,Westminster,Ambrosden Avenue,London,SW1P 1QH,Not applicable,Roman Catholic,,,,,,51.495234,-0.139104,Westminster Cathedral Choir School,281
https://snobe.co.uk/schools/donhead-preparatory-school,102687,Donhead Preparatory School,Merton,33 Edge Hill,London,SW19 4ND,Not applicable,Roman Catholic,,,,,,51.420877,-0.219865,Donhead Preparatory School,340
https://snobe.co.uk/schools/st-josephs-rc-primary-school,101133,St Joseph's RC Primary School,Westminster,Lanark Road,London,W9 1DF,Primary,Roman Catholic,1209.0,968.0,932.0,85.84710744,460.9523809523809,51.52742,-0.182209,St Joseph's RC Primary School,210
https://snobe.co.uk/schools/st-marys-school-hampstead,100067,"St Mary's School, Hampstead",Camden,47 Fitzjohn's Avenue,,NW3 6PG,Not applicable,Roman Catholic,,,,,,51.550538,-0.176296,"St Mary's School, Hampstead",307
https://snobe.co.uk/schools/cavendish-school,100066,The Cavendish School,Camden,31 Inverness Street,London,NW1 7HB,Not applicable,Roman Catholic,,,,,,51.539292,-0.144978,The Cavendish School,276
https://snobe.co.uk/schools/pield-heath-house-rc-school,102464,Pield Heath House RC School,Hillingdon,Pield Heath Road,Uxbridge,UB8 3NW,Not applicable,Roman Catholic,,,,,,51.528025,-0.466351,Pield Heath House RC School,100
https://snobe.co.uk/schools/ursuline-prep-school-ilford,102874,The Ursuline Prep School Ilford,Redbridge,2-4 Coventry Road,Ilford,IG1 4QR,Not applicable,Roman Catholic,,,,,,51.563398,0.069165,The Ursuline Prep School Ilford,300
https://snobe.co.uk/schools/st-philips-school,100516,St Philip's School,Kensington and Chelsea,6 Wetherby Place,London,SW7 4NE,Not applicable,Roman Catholic,,,,,,51.49276,-0.182638,St Philip's School,110
https://snobe.co.uk/schools/st-augustines-rc-primary-school,100347,St Augustine's RC Primary School,Hammersmith and Fulham,Disbrowe Road,London,W6 8QE,Primary,Roman Catholic,1360.0,1220.0,1140.0,73.44262295,580.952380952381,51.484281,-0.209592,St Augustine's RC Primary School,210
https://snobe.co.uk/schools/st-osmunds-catholic-primary-school,102919,St Osmund's Catholic Primary School,Richmond upon Thames,Church Road,London,SW13 9HQ,Primary,Roman Catholic,2243.0,1812.0,1782.0,88.57615894,862.8571428571428,51.474272,-0.245306,St Osmund's Catholic Primary School,210
https://snobe.co.uk/schools/st-anthonys-catholic-primary-school,100852,St Anthony's Catholic Primary School,Southwark,Etherow Street,London,SE22 0LA,Primary,Roman Catholic,3264.0,2205.0,2175.0,84.67120181,490.00000000000006,51.449708,-0.072074,St Anthony's Catholic Primary School,450
https://snobe.co.uk/schools/st-michaels-catholic-primary-school,102773,St Michael's Catholic Primary School,Newham,Howard Road,London,E6 6EE,Primary,Roman Catholic,4815.0,3919.0,3852.0,90.91605001,1866.1904761904761,51.530222,0.058,St Michael's Catholic Primary School,210
https://snobe.co.uk/schools/st-thomas-more-language-college,151008,St. Thomas More Language College,Kensington and Chelsea,Cadogan Street,London,SW3 2QS,Secondary,Roman Catholic,1045.0,622.0,574.0,66.72025723,104.18760469011725,51.492899,-0.162147,St. Thomas More Language College,597
https://snobe.co.uk/schools/bishop-challoner-catholic-school,100978,Bishop Challoner Catholic School,Tower Hamlets,352 Commercial Road,London,E1 0LB,Secondary,Roman Catholic,3203.0,2958.0,2786.0,74.78025693,179.27272727272728,51.513566,-0.049749,Bishop Challoner Catholic School,1650
https://snobe.co.uk/schools/cardinal-pole-catholic-school,100285,Cardinal Pole Catholic School,Hackney,205 Morning Lane,London,E9 6LG,Secondary,Roman Catholic,2559.0,2035.0,1980.0,77.1990172,178.50877192982458,51.546787,-0.046684,Cardinal Pole Catholic School,1140
https://snobe.co.uk/schools/our-lady-and-st-philip-neri-catholic-primary-school,150552,Our Lady and St Philip Neri Catholic Primary School,Lewisham,208 Sydenham Road,London,SE26 5SE,Primary,Roman Catholic,3494.0,2939.0,2916.0,89.9625723,761.39896373057,51.426431,-0.041465,Our Lady and St Philip Neri Catholic Primary School,386
https://snobe.co.uk/schools/st-annes-and-guardian-angels-catholic-primary-school,100950,St Anne's and Guardian Angels Catholic Primary School,Tower Hamlets,Underwood Road,London,E1 5AW,Primary,Roman Catholic,3480.0,2918.0,2858.0,92.2892392,648.4444444444445,51.52113,-0.066118,St Anne's and Guardian Angels Catholic Primary School,450
https://snobe.co.uk/schools/bonus-pastor-catholic-college,100752,Bonus Pastor Catholic College,Lewisham,Winlaton Road,Bromley,BR1 5PZ,Secondary,Roman Catholic,2251.0,2923.0,2733.0,63.90694492,324.77777777777777,51.427684,-0.001679,Bonus Pastor Catholic College,900
https://snobe.co.uk/schools/our-lady-immaculate-catholic-primary-school,102595,Our Lady Immaculate Catholic Primary School,Kingston upon Thames,399 Ewell Road,Surbiton,KT6 7DG,Primary,Roman Catholic,1702.0,1568.0,1537.0,88.1377551,373.3333333333333,51.38244,-0.283627,Our Lady Immaculate Catholic Primary School,420
https://snobe.co.uk/schools/st-elizabeths-catholic-primary-school,102910,St Elizabeth's Catholic Primary School,Richmond upon Thames,Queen's Road,Richmond,TW10 6HN,Primary,Roman Catholic,2243.0,1812.0,1782.0,88.57615894,862.8571428571428,51.456653,-0.290201,St Elizabeth's Catholic Primary School,210

